city,lat,lng
Paris,48.8567,2.3522
Bordeaux,44.84,-0.58
Marseille,43.2964,5.37
Lyon,45.76,4.84
Toulouse,43.6045,1.444
Nice,43.7034,7.2663
Nantes,47.2181,-1.5528
Montpellier,43.6119,3.8772
Strasbourg,48.5833,7.7458
Lille,50.6278,3.0583
Dijon,47.3167,5.0167
Aix-en-Provence,43.5263,5.4454
Grenoble,45.1715,5.7224
Orléans,47.9025,1.909
Tourcoing,50.7239,3.1612
Roubaix,50.6901,3.1817
Versailles,48.8053,2.135
Cannes,43.5513,7.0128
Chambéry,45.57,5.9118
Avignon,43.9493,4.8055